
  [
        {
            "restaurant_idx": 1,
            "category_name": "치킨",
            "restaurant_name": "황금올리브치킨", 
            "longitude": 126.6355,
            "latitude": 37.4801,
            "address": "인천광역시 중구 운서로 123",
            "address_detail": "1층",
            "phone": "0321234567",
            "start_time": "1100",
            "end_time": "2400",
            "is_mine": false
        },
        {
            "restaurant_idx": 2,
            "category_name": "한식",
            "restaurant_name": "인천손칼국수", 
            "longitude": 126.6368,
            "latitude": 37.4785,
            "address": "인천광역시 중구 운서로 456",
            "address_detail": "2층",
            "phone": "0321234568",
            "start_time": "0900",
            "end_time": "2100",
            "is_mine": false
        },
        {
            "restaurant_idx": 3,
            "category_name": "중식",
            "restaurant_name": "공항짬뽕", 
            "longitude": 126.6373,
            "latitude": 37.4810,
            "address": "인천광역시 중구 공항로 789",
            "address_detail": "1층",
            "phone": "0321234569",
            "start_time": "1100",
            "end_time": "2200",
            "is_mine": false
        },
        {
            "restaurant_idx": 4,
            "category_name": "피자",
            "restaurant_name": "공항피자", 
            "longitude": 126.6321,
            "latitude": 37.4822,
            "address": "인천광역시 중구 운서로 321",
            "address_detail": "1층",
            "phone": "0321234570",
            "start_time": "1100",
            "end_time": "2200",
            "is_mine": false
        },
        {
            "restaurant_idx": 5,
            "category_name": "카페·디저트",
            "restaurant_name": "스카이카페", 
            "longitude": 126.6318,
            "latitude": 37.4775,
            "address": "인천광역시 중구 공항로 159",
            "address_detail": "3층",
            "phone": "0321234571",
            "start_time": "0800",
            "end_time": "2200",
            "is_mine": false
        },
        {
            "restaurant_idx": 6,
            "category_name": "찜·탕",
            "restaurant_name": "공항감자탕", 
            "longitude": 126.6382,
            "latitude": 37.4768,
            "address": "인천광역시 중구 운서로 147",
            "address_detail": "1층",
            "phone": "0321234572",
            "start_time": "0000",
            "end_time": "2400",
            "is_mine": false
        },
        {
            "restaurant_idx": 7,
            "category_name": "돈까스·회",
            "restaurant_name": "공항돈까스", 
            "longitude": 126.6345,
            "latitude": 37.4830,
            "address": "인천광역시 중구 공항로 753",
            "address_detail": "2층",
            "phone": "0321234573",
            "start_time": "1100",
            "end_time": "2100",
            "is_mine": false
        },
        {
            "restaurant_idx": 8,
            "category_name": "족발·보쌈",
            "restaurant_name": "하늘족발", 
            "longitude": 126.6309,
            "latitude": 37.4805,
            "address": "인천광역시 중구 운서로 951",
            "address_detail": "1층",
            "phone": "0321234574",
            "start_time": "1500",
            "end_time": "0200",
            "is_mine": false
        },
        {
            "restaurant_idx": 9,
            "category_name": "분식",
            "restaurant_name": "공항떡볶이", 
            "longitude": 126.6390,
            "latitude": 37.4792,
            "address": "인천광역시 중구 공항로 357",
            "address_detail": "1층",
            "phone": "0321234575",
            "start_time": "1100",
            "end_time": "2300",
            "is_mine": false
        },
        {
            "restaurant_idx": 10,
            "category_name": "패스트푸드",
            "restaurant_name": "스카이버거", 
            "longitude": 126.6385,
            "latitude": 37.4815,
            "address": "인천광역시 중구 운서로 852",
            "address_detail": "1층",
            "phone": "0321234576",
            "start_time": "0800",
            "end_time": "2200",
            "is_mine": false
        },
        {
            "restaurant_idx": 11,
            "category_name": "치킨",
            "restaurant_name": "BHC치킨", 
            "longitude": 126.6358,
            "latitude": 37.4759,
            "address": "인천광역시 중구 공항로 456",
            "address_detail": "1층",
            "phone": "0321234577",
            "start_time": "1200",
            "end_time": "2400",
            "is_mine": false
        },
        {
            "restaurant_idx": 12,
            "category_name": "한식",
            "restaurant_name": "하늘김치찌개", 
            "longitude": 126.6332,
            "latitude": 37.4841,
            "address": "인천광역시 중구 운서로 753",
            "address_detail": "2층",
            "phone": "0321234578",
            "start_time": "1000",
            "end_time": "2200",
            "is_mine": false
        },
        {
            "restaurant_idx": 13,
            "category_name": "중식",
            "restaurant_name": "공항마라탕", 
            "longitude": 126.6305,
            "latitude": 37.4762,
            "address": "인천광역시 중구 공항로 852",
            "address_detail": "1층",
            "phone": "0321234579",
            "start_time": "1100",
            "end_time": "2200",
            "is_mine": false
        },
        {
            "restaurant_idx": 14,
            "category_name": "피자",
            "restaurant_name": "도미노피자", 
            "longitude": 126.6329,
            "latitude": 37.4788,
            "address": "인천광역시 중구 운서로 159",
            "address_detail": "1층",
            "phone": "0321234580",
            "start_time": "1100",
            "end_time": "2200",
            "is_mine": false
        },
        {
            "restaurant_idx": 15,
            "category_name": "카페·디저트",
            "restaurant_name": "공항카페", 
            "longitude": 126.6362,
            "latitude": 37.4828,
            "address": "인천광역시 중구 공항로 357",
            "address_detail": "3층",
            "phone": "0321234581",
            "start_time": "0900",
            "end_time": "2200",
            "is_mine": false
        },
        {
            "restaurant_idx": 16,
            "category_name": "찜·탕",
            "restaurant_name": "하늘추어탕", 
            "longitude": 126.6395,
            "latitude": 37.4809,
            "address": "인천광역시 중구 운서로 456",
            "address_detail": "1층",
            "phone": "0321234582",
            "start_time": "0900",
            "end_time": "2100",
            "is_mine": false
        },
        {
            "restaurant_idx": 17,
            "category_name": "돈까스·회",
            "restaurant_name": "스시하늘", 
            "longitude": 126.6377,
            "latitude": 37.4771,
            "address": "인천광역시 중구 공항로 753",
            "address_detail": "2층",
            "phone": "0321234583",
            "start_time": "1100",
            "end_time": "2200",
            "is_mine": false
        },
        {
            "restaurant_idx": 18,
            "category_name": "족발·보쌈",
            "restaurant_name": "공항보쌈", 
            "longitude": 126.6298,
            "latitude": 37.4797,
            "address": "인천광역시 중구 운서로 852",
            "address_detail": "1층",
            "phone": "0321234584",
            "start_time": "1500",
            "end_time": "0100",
            "is_mine": false
        },
        {
            "restaurant_idx": 19,
            "category_name": "분식",
            "restaurant_name": "하늘분식", 
            "longitude": 126.6315,
            "latitude": 37.4835,
            "address": "인천광역시 중구 공항로 159",
            "address_detail": "1층",
            "phone": "0321234585",
            "start_time": "1000",
            "end_time": "2200",
            "is_mine": false
        },
        {
            "restaurant_idx": 20,
            "category_name": "패스트푸드",
            "restaurant_name": "맥도날드", 
            "longitude": 126.6341,
            "latitude": 37.4748,
            "address": "인천광역시 중구 운서로 357",
            "address_detail": "1층",
            "phone": "0321234586",
            "start_time": "0000",
            "end_time": "2400",
            "is_mine": false
        }
    ]